{
"city name": "کرج",
"city name eng": "Karaj",
"county name": "کرج",
"county name eng": "Karaj",
"province name": "البرز",
"province name eng": "Alborz",
"latitude": "35.8400",
"longitude": "50.9391",
"dial code": "026",
"postal code": "NA",
"plate number prefix": "68",
"mobile code": "0912"
},
{
"city name": "نظر آباد",
"city name eng": "Nazarabad",
"county name": "نظر آباد",
"county name eng": "Nazarabad",
"province name": "البرز",
"province name eng": "Alborz",
"latitude": "35.9726",
"longitude": "50.6068",
"dial code": "026",
"postal code": "NA",
"plate number prefix": "68",
"mobile code": "0912"
},
{
"city name": "محمد شهر",
"city name eng": "Mohammadshahr",
"county name": "کرج",
"county name eng": "Karaj",
"province name": "البرز",
"province name eng": "Alborz",
"latitude": "35.7499",
"longitude": "50.9029",
"dial code": "026",
"postal code": "NA",
"plate number prefix": "68",
"mobile code": "0912"
},
{
"city name": "کمال شهر",
"city name eng": "Kamal Shahr",
"county name": "کرج",
"county name eng": "Karaj",
"province name": "البرز",
"province name eng": "Alborz",
"latitude": "35.8927",
"longitude": "50.8769",
"dial code": "026",
"postal code": "NA",
"plate number prefix": "68",
"mobile code": "0912"
},
{
"city name": "ماهدشت",
"city name eng": "Mahdasht",
"county name": "کرج",
"county name eng": "Karaj",
"province name": "البرز",
"province name eng": "Alborz",
"latitude": "35.7309",
"longitude": "50.7936",
"dial code": "026",
"postal code": "NA",
"plate number prefix": "68",
"mobile code": "0912"
},
{
"city name": "هشتگرد",
"city name eng": "Hashtgerd",
"county name": "ساوجبلاغ",
"county name eng": "Savojbolagh",
"province name": "البرز",
"province name eng": "Alborz",
"latitude": "35.9614",
"longitude": "50.6846",
"dial code": "026",
"postal code": "NA",
"plate number prefix": "68",
"mobile code": "0912"
},
{
"city name": "مشکین دشت",
"city name eng": "Meshkin Dasht",
"county name": "فردیس",
"county name eng": "Fardis",
"province name": "البرز",
"province name eng": "Alborz",
"latitude": "35.7500",
"longitude": "50.9393",
"dial code": "026",
"postal code": "NA",
"plate number prefix": "68",
"mobile code": "0912"
},
{
"city name": "اشتهارد",
"city name eng": "Eshtehard",
"county name": "اشتهارد",
"county name eng": "Eshtehard",
"province name": "البرز",
"province name eng": "Alborz",
"latitude": "35.7244",
"longitude": "50.3662",
"dial code": "026",
"postal code": "NA",
"plate number prefix": "68",
"mobile code": "0912"
},
{
"city name": "شهر جدید هشتگرد",
"city name eng": "Shahr-e Jadid-e Hashtgerd",
"county name": "ساوجبلاغ",
"county name eng": "Savojbolagh",
"province name": "البرز",
"province name eng": "Alborz",
"latitude": "35.9846",
"longitude": "50.7284",
"dial code": "026",
"postal code": "NA",
"plate number prefix": "68",
"mobile code": "0912"
},
{
"city name": "گرمدره",
"city name eng": "Garmdarreh",
"county name": "کرج",
"county name eng": "Karaj",
"province name": "البرز",
"province name eng": "Alborz",
"latitude": "35.7583",
"longitude": "51.0697",
"dial code": "026",
"postal code": "NA",
"plate number prefix": "68",
"mobile code": "0912"
},
{
"city name": "کوهسار",
"city name eng": "Kuhsar",
"county name": "ساوجبلاغ",
"county name eng": "Savojbolagh",
"province name": "البرز",
"province name eng": "Alborz",
"latitude": "35.9681",
"longitude": "50.7910",
"dial code": "026",
"postal code": "NA",
"plate number prefix": "68",
"mobile code": "0912"
},
{
"city name": "چهارباغ",
"city name eng": "Chaharbagh",
"county name": "ساوجبلاغ",
"county name eng": "Savojbolagh",
"province name": "البرز",
"province name eng": "Alborz",
"latitude": "35.8377",
"longitude": "50.8482",
"dial code": "026",
"postal code": "NA",
"plate number prefix": "68",
"mobile code": "0912"
},
{
"city name": "تنکمان",
"city name eng": "Tankaman",
"county name": "نظر آباد",
"county name eng": "Nazarabad",
"province name": "البرز",
"province name eng": "Alborz",
"latitude": "35.8919",
"longitude": "50.6158",
"dial code": "026",
"postal code": "NA",
"plate number prefix": "68",
"mobile code": "0912"
},
{
"city name": "طالقان",
"city name eng": "Taleqan",
"county name": "طالقان",
"county name eng": "Taleqan",
"province name": "البرز",
"province name eng": "Alborz",
"latitude": "36.7339",
"longitude": "69.5394",
"dial code": "026",
"postal code": "NA",
"plate number prefix": "68",
"mobile code": "0912"
},
{
"city name": "آسارا",
"city name eng": "Asara",
"county name": "کرج",
"county name eng": "Karaj",
"province name": "البرز",
"province name eng": "Alborz",
"latitude": "36.0375",
"longitude": "51.1965",
"dial code": "026",
"postal code": "NA",
"plate number prefix": "68",
"mobile code": "0912"
}
